[{"type":"Feature","geometry":{"type":"Point","coordinates":[-118.489118,34.01347]},"properties":{"title":"WSFB- Ocean Park Community Center","address":"503 Olympic Boulevard","address2":"Santa Monica, CA 90401","phone":"310.450.4050","description":"Tuesday 1:00 PM - 2:30 PM"}},{"type":"Feature","geometry":{"type":"Point","coordinates":[-118.476605,34.02673]},"properties":{"title":"WSFB- St. Anne&#8217;s Social Service","address":"2013 Colorado Avenue","address2":"Santa Monica, CA 90404","phone":"310.829.4411","description":"Wednesday 4:00 PM - 5:30 PM"}},{"type":"Feature","geometry":{"type":"Point","coordinates":[-118.477569,33.998169]},"properties":{"title":"Catholic Charities St. Roberts","address":"211 3rd Ave.","address2":"Venice, CA 90291","phone":"310.848.1448","description":"1st Sunday & Saturday 10:00 AM-2:00 PM"}},{"type":"Feature","geometry":{"type":"Point","coordinates":[-118.477865,33.997834]},"properties":{"title":"WSFB- St. Joseph&#8217;s Center","address":"204 Hampton Drive","address2":"Venice, CA 90291","phone":"310.396.6468","description":"Monday, Wednesday, Thursday 10:00 AM - 12:00 PM; Tuesday & Friday 1:00 PM - 3:00 PM"}},{"type":"Feature","geometry":{"type":"Point","coordinates":[-118.419094,33.995315]},"properties":{"title":"WSFB- St. Gerard&#8217;s Social Services","address":"4439 Inglewood Boulevard","address2":"Los Angeles, CA 90066","phone":"310.390.5034","description":"Tuesday & Thursday 9:00 AM - 12:00 PM & 1:00 PM - 3:00 PM"}},{"type":"Feature","geometry":{"type":"Point","coordinates":[-118.400788,34.021285]},"properties":{"title":"WSFB- St. Augustine SAVES","address":"3820 Jasmine Avenue","address2":"Culver City, CA 90232","phone":"310.838.2702","description":"Monday, Wednesday, Friday 9:00 AM - 11:45 AM"}},{"type":"Feature","geometry":{"type":"Point","coordinates":[-118.384862,34.054699]},"properties":{"title":"JFS/SOVA Community Food &#038; Resource Program","address":"8846 W. Pico Boulevard","address2":"Los Angeles, CA 90035","phone":"818.988.7682","description":"Monday-Thursday 10:00 AM-1:30 PM & Sunday 9:00 AM-12:00 PM"}},{"type":"Feature","geometry":{"type":"Point","coordinates":[-118.366161,34.041477]},"properties":{"title":"Christian Association for Social Services","address":"5814 Venice Blvd.","address2":"Los Angeles, CA 90019","phone":"323-936-9481","description":"1st & 3rd Friday & Saturday 10:00 AM-12:00 PM"}},{"type":"Feature","geometry":{"type":"Point","coordinates":[-118.356743,34.025827]},"properties":{"title":"Unity Fellowship of Christ Church","address":"5149 W. Jefferson Blvd","address2":"Los Angeles, CA 90016","phone":"310.930.5683","description":"Tuesday 12:30 PM-4:00 PM"}},{"type":"Feature","geometry":{"type":"Point","coordinates":[-118.366702,33.96243]},"properties":{"title":"First Lutheran Church of Inglewood","address":"600 West Queen Street","address2":"Inglewood, CA 90301","phone":"310.674.5103","description":"Thursday 8:30 AM - 10:30 AM"}},{"type":"Feature","geometry":{"type":"Point","coordinates":[-118.356856,33.976669]},"properties":{"title":"Chapel of Peace Lutheran Church","address":"1009 N. Market Street","address2":"Inglewood, CA 90302","phone":"310.673.2584","description":"3rd Saturday 9:00 AM - 12:00 PM"}},{"type":"Feature","geometry":{"type":"Point","coordinates":[-118.357221,33.972935]},"properties":{"title":"Christ Centered Ministries Church","address":"742 N. La Brea Avenue","address2":"Inglewood, CA 90302","phone":"310.676.1499","description":"3rd Saturday 10:00 AM - 12:00 PM"}},{"type":"Feature","geometry":{"type":"Point","coordinates":[-118.346332,33.988648]},"properties":{"title":"Grace United Methodist Church","address":"4112 W. Slauson Blvd.","address2":"Los Angeles, CA 90043","phone":"323.294.6653","description":"3rd Friday 8:00-11:00 AM"}},{"type":"Feature","geometry":{"type":"Point","coordinates":[-118.359983,33.959573]},"properties":{"title":"Inglewood Church of Christ","address":"323 S. Eucalyptus Ave.","address2":"Inglewood, CA 90301","phone":"310.674.7690","description":"3rd Friday 10:00 AM - 12:00 PM"}},{"type":"Feature","geometry":{"type":"Point","coordinates":[-118.340944,34.006966]},"properties":{"title":"Crenshaw United Methodist Church","address":"3740 Don Felipe Drive","address2":"Los Angeles, CA 90008","phone":"323.292.0141","description":"3rd Saturday 10:00 AM - 12:00 PM"}},{"type":"Feature","geometry":{"type":"Point","coordinates":[-118.341606,33.992811]},"properties":{"title":"Robbins Memorial Church of God in Christ","address":"3868 W. 54th Street","address2":"Los Angeles, CA 90043","phone":"323-298-8771","description":"1st Wednesday 8:00 AM - 9:00 AM"}},{"type":"Feature","geometry":{"type":"Point","coordinates":[-118.354641,33.957906]},"properties":{"title":"New Mount Pleasant Missionary Baptist Church","address":"434 S. Grevillea Ave","address2":"Inglewood, CA 90301","phone":"310.673.6250","description":"3rd & 4th Wednesday 11:00 AM-2:00 PM"}},{"type":"Feature","geometry":{"type":"Point","coordinates":[-118.335414,34.026713]},"properties":{"title":"West Angeles Community Corporation","address":"3045 South Crenshaw Boulevard","address2":"Los Angeles, CA 90016","phone":"323.751.3440","description":"Monday - Thursday 9:00 AM - 1:00 PM"}},{"type":"Feature","geometry":{"type":"Point","coordinates":[-118.337061,34.039696]},"properties":{"title":"Bread of Life Foursquare Gospel Church","address":"5175 1/2 W. Washington St.","address2":"Los Angeles, CA 90016","phone":"323.939.4716","description":"Wednesday 11:00 am to 12:30 pm (Senior Only Distribution 3rd Wednesday 10:30 AM & 4th Sunday 3:00 PM)"}},{"type":"Feature","geometry":{"type":"Point","coordinates":[-118.3372,34.040634]},"properties":{"title":"First Presbyterian Church","address":"1809 West Boulevard.","address2":"Los Angeles, CA 90019","phone":"323.935.5204","description":"1st Sunday 12:30 PM - 2:00 PM & 3rd Saturday 9:00 AM - 11:00 AM"}},{"type":"Feature","geometry":{"type":"Point","coordinates":[-118.353637,33.958237]},"properties":{"title":"Breath of Life S.D.A. Church","address":"425 S. La Brea","address2":"Inglewood, CA 90301","phone":"310.837.8782","description":"1st & 3rd Thursday 12:00 PM - 3:00 PM (Seniors Only Distribution Hours 1st Thursday 9:30 AM - 11:30 AM)"}},{"type":"Feature","geometry":{"type":"Point","coordinates":[-118.350769,33.959536]},"properties":{"title":"American Veteran Inc.","address":"318 E. Hillcrest Blvd","address2":"Inglewood, CA 90301","phone":"909-534-5953","description":"Friday 5:00 PM - 10:00 PM & Saturday & Sunday 10:00 AM - 2:00 PM"}},{"type":"Feature","geometry":{"type":"Point","coordinates":[-118.361832,33.943034]},"properties":{"title":"St. Margaret&#8217;s Center","address":"10217 Inglewood Avenue","address2":"Lennox, CA 90304","phone":"310.672.2208","description":"Monday, Wednesday, Friday 9:00 AM - 12:00 PM & 1:00 PM - 4:00 PM"}},{"type":"Feature","geometry":{"type":"Point","coordinates":[-118.330985,34.03299]},"properties":{"title":"Berean S.D.A. Church","address":"4211 W. Adams Boulevard","address2":"Los Angeles, CA 90018","phone":"323.735.0228","description":"3rd Thursday 9:00 AM - 11:00 AM"}},{"type":"Feature","geometry":{"type":"Point","coordinates":[-118.334169,33.988313]},"properties":{"title":"My Friends House","address":"3533 West 58th Place","address2":"Los Angeles, CA 90043","phone":"323.292.4939","description":"Wednesday 9:00 AM - 11:00 AM"}},{"type":"Feature","geometry":{"type":"Point","coordinates":[-118.365416,33.924778]},"properties":{"title":"Del Aire Baptist Church","address":"4951 W. 119th Place","address2":"Hawthorne, CA 90250","phone":"310.676.8352","description":"Friday 9/13 & 9/27 from 2:00 PM-4:00 PM & Saturday 9/7 & 9/21 from 9:00 AM - 12:00 PM (Senior Only Distributions 9/11 & 9/18 from 1:00-2:00 PM)"}},{"type":"Feature","geometry":{"type":"Point","coordinates":[-118.346423,33.946987]},"properties":{"title":"Greater New Bethel","address":"601 E. 99th St","address2":"Inglewood, CA 90301","phone":"310.677.1663","description":"2nd & 4th Tues & Thursday 10:00am-1:00pm"}},{"type":"Feature","geometry":{"type":"Point","coordinates":[-118.352144,33.928754]},"properties":{"title":"Justice Children Deserve","address":"11612 Hawthorne Blvd, Suite 103","address2":"Hawthorne, CA 90250","phone":"213.426.0108","description":"2nd & 4th Friday 11:00 AM - 2:00 PM"}},{"type":"Feature","geometry":{"type":"Point","coordinates":[-118.343342,33.942083]},"properties":{"title":"Inglewood Southside Christian Church","address":"3947 W. 104th Street","address2":"Inglewood, CA 90303","phone":"310.677.0446","description":"2nd Saturday 10:00 AM - 1:00 PM"}},{"type":"Feature","geometry":{"type":"Point","coordinates":[-118.334826,33.960216]},"properties":{"title":"Maranatha S.D.A. Community Center","address":"3569 W. Manchester Blvd.","address2":"Inglewood, CA 90305","phone":"323.971.3511","description":"2nd & 4th Tuesday 10:00-11:30 AM"}},{"type":"Feature","geometry":{"type":"Point","coordinates":[-118.328164,33.96781]},"properties":{"title":"Zion Hill Baptist Church","address":"7860 10th Avenue","address2":"Los Angeles, CA 90043","phone":"323.753.4610","description":"1st & 3rd Tuesday 10:00 AM - 12:00 PM (Senior Only Distribution 4th Friday 10:00 AM - 11:30 AM)"}},{"type":"Feature","geometry":{"type":"Point","coordinates":[-118.325827,33.952441]},"properties":{"title":"Holy Trinity Lutheran Church","address":"9300 Crenshaw Blvd","address2":"Inglewood, CA 90305","phone":"323.757.1739","description":"2nd & 4th Saturday 1:00 PM-2:00 PM"}},{"type":"Feature","geometry":{"type":"Point","coordinates":[-118.338406,33.934109]},"properties":{"title":"Greater Emmanuel M.B.C.","address":"3727 West 111th Place","address2":"Inglewood, CA 90303","phone":"310.677.9916","description":"Saturday 9:00 AM -11:00 AM & Wednesday 9:00 AM -11:00 AM"}},{"type":"Feature","geometry":{"type":"Point","coordinates":[-118.313608,33.963229]},"properties":{"title":"Saint Mark Food Pantry","address":"8305 S. Gramercy Place","address2":"Los Angeles, CA 90047","phone":"323.753.3535","description":"1st & 3rd Wednesday 10:30 AM - 11:30 AM"}},{"type":"Feature","geometry":{"type":"Point","coordinates":[-118.324689,33.988853]},"properties":{"title":"Islah L.A.","address":"2900 Slauson Ave.","address2":"Los Angeles, CA 90043","phone":"323.596.3456","description":"Saturday 11:30 AM - 12:45 PM"}},{"type":"Feature","geometry":{"type":"Point","coordinates":[-118.351722,33.925161]},"properties":{"title":"St. Joseph Catholic Church","address":"11901 Acacia Ave.","address2":"Hawthorne, CA 90250","phone":"310.679.1139","description":"2nd Sunday 9:00 AM - 11:00 AM"}},{"type":"Feature","geometry":{"type":"Point","coordinates":[-118.308742,33.964369]},"properties":{"title":"New Direction Community Program","address":"8200 South Western Avenue","address2":"Los Angeles, CA 90047","phone":"323.291.0035","description":"2nd & 4th Saturday 1:30 PM-2:30 PM"}},{"type":"Feature","geometry":{"type":"Point","coordinates":[-118.309265,33.970393]},"properties":{"title":"H.O.P.E. Helping Other People Excel","address":"7615 S. Western Ave","address2":"Los Angeles, CA 90047","phone":"310.753.8560","description":"Monday & Friday 10:00 AM -12:00 PM (Senior Only Distribution 1st Monday 12:00 PM - 2:00 PM)"}},{"type":"Feature","geometry":{"type":"Point","coordinates":[-118.307054,33.959516]},"properties":{"title":"Another Way Foundation","address":"1704 Manchester Ave, Suite #204","address2":"Los Angeles, CA 90047","phone":"323.944.4754","description":"2nd & 4th Tuesday and Thursday"}},{"type":"Feature","geometry":{"type":"Point","coordinates":[-118.15902,34.012313]},"properties":{"title":"Door of Hope Community Center","address":"1414 South Atlantic Blvd.","address2":"Los Angeles, CA 90022","phone":"323.262.2777","description":"Monday & Thursday 9:00 AM - 11:00 AM"}},{"type":"Feature","geometry":{"type":"Point","coordinates":[-118.150166,34.021013]},"properties":{"title":"Eastmont Community Center","address":"701 Hoefner Avenue","address2":"Los Angeles, CA 90022","phone":"323.726.7998","description":"Monday - Friday 9:00 AM - 11:00 AM"}},{"type":"Feature","geometry":{"type":"Point","coordinates":[-118.149434,34.020954]},"properties":{"title":"East L.A. Bilingual S.D.A. Church","address":"700 Hoefner Avenue","address2":"Los Angeles, CA 90022","phone":"323.633.4734","description":"Wednesday 5:30 PM - 6:30 PM, 1st & 3rd Saturday 12:00 PM - 12:45 PM"}},{"type":"Feature","geometry":{"type":"Point","coordinates":[-118.179296,34.03715]},"properties":{"title":"Food Net- East Los Angeles Center","address":"133 N. Sunol Drive","address2":"Los Angeles, CA 90063","phone":"323-260-2801","description":"Monday, Tuesday, Friday 9:30 AM - 12:00 PM; 1:30 PM - 4:00 PM"}},{"type":"Feature","geometry":{"type":"Point","coordinates":[-118.164472,34.040334]},"properties":{"title":"Food Net-Centro Maravilla","address":"4716 E. Cesar Chavez Avenue","address2":"Los Angeles, CA 90022","phone":"323.260.2804","description":"Monday, Tuesday, Friday 8:30 AM - 4:00 PM"}},{"type":"Feature","geometry":{"type":"Point","coordinates":[-118.18545,34.036924]},"properties":{"title":"Salvation Army- East L.A.","address":"140 N. Eastman Avenue","address2":"Los Angeles, CA 90063","phone":"323.263-7577","description":"Monday - Friday 9:00 AM - 12:00 PM & 12:30- 3:30 PM"}},{"type":"Feature","geometry":{"type":"Point","coordinates":[-118.179417,34.042108]},"properties":{"title":"Guadalupe Food Program","address":"4018 East Hammel Street","address2":"Los Angeles, CA 90063","phone":"323.261.8051","description":"2nd & 4th Wednesday 7:00 AM - 9:00 AM"}},{"type":"Feature","geometry":{"type":"Point","coordinates":[-118.15756,34.000901]},"properties":{"title":"City of Commerce Community Center","address":"5625 Jillson Street","address2":"Commerce, CA 90040","phone":"323 887-4460","description":"3rd Thursday 10:30 AM - 1:00 PM"}},{"type":"Feature","geometry":{"type":"Point","coordinates":[-118.137641,34.013463]},"properties":{"title":"Eastmont S.D.A. Spanish Church","address":"1021 Westside Drive","address2":"Los Angeles, CA 90022","phone":"323.284.6004","description":"Monday 6:30-8:00pm"}},{"type":"Feature","geometry":{"type":"Point","coordinates":[-118.199685,34.026918]},"properties":{"title":"Family Health Care Resources","address":"3444 Whittier Blvd","address2":"Los Angeles, CA 90023","phone":"213.413.3040","description":"Monday-Friday 8:00 AM-6:00 PM"}},{"type":"Feature","geometry":{"type":"Point","coordinates":[-118.133709,34.019165]},"properties":{"title":"Mexican-American Opportunity Foundation","address":"401 N. Garfield Ave","address2":"Montebello, CA 90640","phone":"323.890.9600","description":"Wednesday & Thursday 9:00 AM - 1:00 PM"}},{"type":"Feature","geometry":{"type":"Point","coordinates":[-118.199474,34.030634]},"properties":{"title":"MFP-East LA Community Corporation","address":"611 S. Lorena Street","address2":"Los Angeles, CA 90023","phone":"323.269.4214","description":"3rd Wednesday 9:00-11:00 AM"}},{"type":"Feature","geometry":{"type":"Point","coordinates":[-118.20245,34.039745]},"properties":{"title":"Iglesia Pentecostes Roca de Salvacion","address":"122 South Evergreen Avenue","address2":"Los Angeles, CA 90033","phone":"323.832.5313","description":"2nd & 4th Sunday 5:00pm-6:00pm"}},{"type":"Feature","geometry":{"type":"Point","coordinates":[-118.208511,34.021122]},"properties":{"title":"Estrada Courts Community Center","address":"3232 Hunter Street","address2":"Los Angeles, CA 90023","phone":"323.641.8943","description":"2nd & 4th Wednesday 8:00 AM - 10:00 AM"}},{"type":"Feature","geometry":{"type":"Point","coordinates":[-118.205009,34.036546]},"properties":{"title":"Our Lady of Talpa Church","address":"427 S. Evergreen Ave.","address2":"Los Angeles, CA 90033","phone":"323.268.9177","description":"3rd Tuesday 1:00 PM - 3:00 PM"}},{"type":"Feature","geometry":{"type":"Point","coordinates":[-118.189238,33.987693]},"properties":{"title":"MFP-City of Maywood","address":"4319 E. Slauson Avenue","address2":"Maywood, CA 90270","phone":"323.562.5755","description":"4th Thursday 1:00 PM - 3:00 PM"}},{"type":"Feature","geometry":{"type":"Point","coordinates":[-118.113475,34.011737]},"properties":{"title":"Rosewood Revitalization Group","address":"1220 West Whittier Blvd","address2":"Montebello, CA 90640","phone":"323.662.1194","description":"3rd Saturday 1:00 PM-3:00 PM"}},{"type":"Feature","geometry":{"type":"Point","coordinates":[-118.164907,33.975503]},"properties":{"title":"All Nations Christian Fellowship","address":"5602 E. Gage Ave","address2":"Bell Gardens, CA 90201","phone":"323.773.4883","description":"3rd Sunday 1:00 PM-2:00 PM"}},{"type":"Feature","geometry":{"type":"Point","coordinates":[-118.110028,34.010207]},"properties":{"title":"MFP-Latino Kids Health","address":"901 W. Whittier Blvd","address2":"Montebello, CA 90640","phone":"323.765.8916","description":"3rd Tuesday 9am-12pm"}},{"type":"Feature","geometry":{"type":"Point","coordinates":[-118.216242,34.050086]},"properties":{"title":"White Memorial S.D.A. Church","address":"401 N. State Street","address2":"Los Angeles, CA 90033","phone":"323 264-2170","description":"1st & 3rd Tuesday 10:00 AM - 12:00 PM"}},{"type":"Feature","geometry":{"type":"Point","coordinates":[-118.215153,34.051639]},"properties":{"title":"Spanish American S.D.A. Church","address":"1815 E. Bridge Street","address2":"Los Angeles, CA 90033","phone":"323.222.7063","description":"2nd & 4th Wednesday 5:00 PM - 6:30 PM"}},{"type":"Feature","geometry":{"type":"Point","coordinates":[-118.180948,33.974286]},"properties":{"title":"Principe de Paz","address":"6706 Vinevale Avenue","address2":"Bell, CA 90201","phone":"323.560.3780","description":"2nd & 4th Thursday 11:00 AM - 1:00 PM"}},{"type":"Feature","geometry":{"type":"Point","coordinates":[-118.125183,34.06164]},"properties":{"title":"St. Stephen&#8217;s Community Outreach Program","address":"122 Ramona Avenue","address2":"Monterey Park, CA 91754","phone":"626.573.9984","description":"Saturday 9:30 AM - 12:00pm (Seniors Only Distribution 4th Saturday 12:00 PM - 1:00 PM)"}},{"type":"Feature","geometry":{"type":"Point","coordinates":[-118.150714,33.9679]},"properties":{"title":"St. Gertrudes Conference","address":"7025 Garfield Avenue","address2":"Bell Gardens, CA 90201","phone":"562.927.4495","description":"2nd & 4th Friday 9:00 AM - 10:00 AM"}},{"type":"Feature","geometry":{"type":"Point","coordinates":[-118.216386,33.981447]},"properties":{"title":"Salvation Army Southeast Comm. Corp","address":"2965 E. Gage Avenue","address2":"Huntington Park, CA 90255","phone":"323-587-4221","description":"Tuesday 10:00 AM-11:00 AM & Thursday 10:00 AM-11:00 AM/2:00 PM - 4:00 PM"}},{"type":"Feature","geometry":{"type":"Point","coordinates":[-117.934694,34.085602]},"properties":{"title":"Bethany Church","address":"763 N. Sunset Avenue","address2":"West Covina, CA 91790","phone":"626.962.8501","description":"3rd Saturday 9:00 AM-10:30 AM"}},{"type":"Feature","geometry":{"type":"Point","coordinates":[-117.933962,34.049857]},"properties":{"title":"Servants Arms Community Based Organization","address":"1720 N. Walnut Avenue","address2":"La Puente, CA 91744","phone":"626.918.3227","description":"2nd & 4th Thursday 3:00 PM - 6:00 PM"}},{"type":"Feature","geometry":{"type":"Point","coordinates":[-117.946913,34.049918]},"properties":{"title":"C.A.R.E. Heglis","address":"1633 N. Hacienda Boulevard","address2":"La Puente, CA 91744","phone":"626.715.5653","description":"3rd Friday 10:30am-12:00pm (Senior Only Distribution 3rd Friday 9:30 AM - 10:30 AM)"}},{"type":"Feature","geometry":{"type":"Point","coordinates":[-117.969409,34.085102]},"properties":{"title":"Baldwin Park Bilingual S.D.A. Church","address":"13965 East Ramona Parkway","address2":"Baldwin Park, CA 91706","phone":"626 338-4828","description":"Wednesday 6:30 PM - 7:30 PM, Except 5th Wednesday"}},{"type":"Feature","geometry":{"type":"Point","coordinates":[-117.976656,34.080437]},"properties":{"title":"Church of the Redeemer","address":"3739 North Monterey Avenue","address2":"Baldwin Park, CA 91706","phone":"626.960.9585","description":"Last Saturday 7:00 AM - 9:00 AM"}},{"type":"Feature","geometry":{"type":"Point","coordinates":[-117.898621,34.080021]},"properties":{"title":"Iglesia de Cristo Elim","address":"550 S. Hollenbeck Ave.","address2":"Covina, CA 91723","phone":"323.207.0356","description":"Saturday 8:00 AM - 9:00 AM"}},{"type":"Feature","geometry":{"type":"Point","coordinates":[-117.909734,34.094701]},"properties":{"title":"God&#8217;s Pantry","address":"1016 w. Cypress St.","address2":"Covina, CA 91722","phone":"909.455.4531","description":"4th Saturday 8:30-11:30 AM"}},{"type":"Feature","geometry":{"type":"Point","coordinates":[-117.989376,34.078984]},"properties":{"title":"Cory&#8217;s Kitchen-New Beginnings","address":"13020 Francisquito Avenue, Suite 10","address2":"Baldwin Park, CA 91706","phone":"626.305.0392","description":"Friday 5:00-7:00 PM"}},{"type":"Feature","geometry":{"type":"Point","coordinates":[-117.950757,34.026354]},"properties":{"title":"First United Methodist Church of La Puente","address":"15701 E. Hill Street","address2":"La Puente, CA 91744","phone":"626.968.9394","description":"Last Sunday 10:00 AM - 12:30 PM"}},{"type":"Feature","geometry":{"type":"Point","coordinates":[-117.887641,34.089634]},"properties":{"title":"Project 29:11, A Community Development Corporation","address":"418 N. Second Avenue","address2":"Covina, CA 91723","phone":"626.373.2976","description":"Tuesday and Friday 2:00 PM-5:00 PM"}},{"type":"Feature","geometry":{"type":"Point","coordinates":[-117.997428,34.043247]},"properties":{"title":"Vision de Cristo Ministerio Kairos","address":"371 Workman Mill Road","address2":"La Puente, CA 91746","phone":"626.367.0690","description":"Saturday 9:00-10:30 AM"}},{"type":"Feature","geometry":{"type":"Point","coordinates":[-117.974691,34.114613]},"properties":{"title":"Cory&#8217;s Kitchen","address":"1418 Arrow Highway","address2":"Irwindale, CA 91706","phone":"626.305.0392","description":"Tuesday 5:30-7:30 PM"}},{"type":"Feature","geometry":{"type":"Point","coordinates":[-117.974691,34.114613]},"properties":{"title":"Shepherds Pantry","address":"1418 Arrow Highway","address2":"Irwindale, CA 91706","phone":"626.305.0392","description":"Tuesday 5:00-7:00 PM"}},{"type":"Feature","geometry":{"type":"Point","coordinates":[-117.999156,34.043573]},"properties":{"title":"MFP-Evergreen Baptist Church of San Gabriel Valley","address":"323 Workman Mill Road","address2":"La Puente, CA 91746","phone":"626.363.0300","description":"1st & 3rd Friday 10:00 AM-12:00 PM"}},{"type":"Feature","geometry":{"type":"Point","coordinates":[-117.882114,34.114871]},"properties":{"title":"Village Covenant","address":"5607 N. Barranca Avenue","address2":"Azusa, CA 91702","phone":"626-335-4013","description":"Friday 9:00 AM - 1:00 PM"}},{"type":"Feature","geometry":{"type":"Point","coordinates":[-117.898586,34.125536]},"properties":{"title":"Gods Pantry","address":"240 N. Cerritos Ave.","address2":"Azusa, CA 91702","phone":"909.455.4531","description":"2nd Saturday 7:30 AM - 12:00 PM"}},{"type":"Feature","geometry":{"type":"Point","coordinates":[-118.015475,34.08787]},"properties":{"title":"San Gabriel Valley Family Center","address":"4602 N. Peck Road","address2":"El Monte, CA 91732","phone":"626.442.5470","description":"Thursday 2:00 PM- 4:00 PM"}},{"type":"Feature","geometry":{"type":"Point","coordinates":[-117.908835,34.006811]},"properties":{"title":"La Puente Spanish S.D.A. Church","address":"18047 Valley Boulevard","address2":"La Puente, CA 91744","phone":"626.824.9285","description":"Tuesday 8:30 PM - 9:00 PM"}},{"type":"Feature","geometry":{"type":"Point","coordinates":[-117.980451,34.011263]},"properties":{"title":"St. John Vianney Church","address":"1345 Turnbull Canyon Road","address2":"Hacienda Heights, CA 91745","phone":"626-330-2269","description":"Saturday 9:00 AM - 12:00 PM"}},{"type":"Feature","geometry":{"type":"Point","coordinates":[-118.191642,33.784066]},"properties":{"title":"Catholic Charities of Long Beach","address":"123 East 14th Street","address2":"Long Beach, CA 90813","phone":"562.591.1641","description":"Tuesday & Thursday 9:30 AM - 12:00 PM & 1:30 PM - 3:00 PM"}},{"type":"Feature","geometry":{"type":"Point","coordinates":[-118.192732,33.787467]},"properties":{"title":"Long Beach Lutheran Social Services","address":"1611 Pine Avenue","address2":"Long Beach, CA 90813","phone":"562.599.1321","description":"Monday - Thursday 10:00 AM - 12:00 PM & 12:30 PM - 2:00 PM"}},{"type":"Feature","geometry":{"type":"Point","coordinates":[-118.17439,33.786792]},"properties":{"title":"Christ the Good Shepherd","address":"1535 Gundry Avenue","address2":"Long Beach, CA 90813","phone":"562.674.0288","description":"Friday 9:00 AM - 12:00 PM"}},{"type":"Feature","geometry":{"type":"Point","coordinates":[-118.18529,33.796319]},"properties":{"title":"Filipino Baptist Fellowship of Long Beach","address":"2155 Atlantic Avenue","address2":"Long Beach, CA 90806","phone":"310.212.5175","description":"3rd Saturday 10:00 AM - 1:00 PM"}},{"type":"Feature","geometry":{"type":"Point","coordinates":[-118.222509,33.823955]},"properties":{"title":"Harbor Baptist Church","address":"2300 W. Wardlow Road","address2":"Long Beach, CA 90810","phone":"562.427.8046","description":"Thursday 10:30 AM - 12:00 PM"}},{"type":"Feature","geometry":{"type":"Point","coordinates":[-118.262896,33.783934]},"properties":{"title":"Nuevo Amanecer","address":"1035 N. Avalon Boulevard","address2":"Wilmington, CA 90744","phone":"310.847.6937","description":"1st & 3rd Saturday 10:00 AM - 11:00 AM"}},{"type":"Feature","geometry":{"type":"Point","coordinates":[-118.267988,33.782344]},"properties":{"title":"St. Peter and Paul Poverty Program","address":"943 Lagoon Avenue","address2":"Wilmington, CA 90744","phone":"310.952.0144","description":"Monday, Tuesday, Thursday 9:00 AM - 11:00 AM"}},{"type":"Feature","geometry":{"type":"Point","coordinates":[-118.274817,33.795033]},"properties":{"title":"Harbor Christian Center","address":"1602 N. Wilmington Blvd","address2":"Wilmington, CA 90744","phone":"310.835.5661","description":"4th Saturday 11:00 AM-1:30 PM"}},{"type":"Feature","geometry":{"type":"Point","coordinates":[-118.121366,33.819743]},"properties":{"title":"First Southern Baptist Church of Long Beach","address":"3435 San Anseline Avenue","address2":"Long Beach, CA 90808","phone":"562.531.2925","description":"3rd Saturday 10:00 AM - 12:00 PM"}},{"type":"Feature","geometry":{"type":"Point","coordinates":[-118.121366,33.819743]},"properties":{"title":"Truett Memorial Southern Baptist Church","address":"3435 San Anseline Avenue","address2":"Long Beach, CA 90808","phone":"562.425.1235","description":"Monday, Tuesday & Thursday 10:30 AM-11:30 AM & Wednesday, Saturday 10:00 AM-11:00 AM"}},{"type":"Feature","geometry":{"type":"Point","coordinates":[-118.262002,33.824417]},"properties":{"title":"Jesus Christ the Redeemer Center","address":"755 E. 223rd Street","address2":"Carson, CA 90745","phone":"424.264.9875","description":"Saturday 11:00 AM - 11:30 AM, Except Last Saturday"}},{"type":"Feature","geometry":{"type":"Point","coordinates":[-118.181868,33.849011]},"properties":{"title":"Women In Action Reaching Out","address":"851 Via Carmelitos","address2":"Long Beach, CA 90805","phone":"562.253.8078","description":"Thursday 9:00 AM-10:00 AM"}},{"type":"Feature","geometry":{"type":"Point","coordinates":[-118.289616,33.797371]},"properties":{"title":"Salvation Army &#8211; Stillman Sawyer Family Services","address":"820 Lomita Blvd.","address2":"Harbor City, CA 90710","phone":"310.370.4515","description":"Monday - Friday 9:30 AM-12:30 PM"}},{"type":"Feature","geometry":{"type":"Point","coordinates":[-118.293804,33.741255]},"properties":{"title":"Food Net-San Pedro Service Center","address":"769 W. Third Street","address2":"San Pedro, CA 90731","phone":"310-519-6091","description":"Tuesday - Friday 2:00 PM - 4:30 PM"}},{"type":"Feature","geometry":{"type":"Point","coordinates":[-118.29674,33.796561]},"properties":{"title":"Jesus is the Answer Apostolic Church","address":"25100 S. Normandie Ave, Suite A","address2":"Harbor City, CA 90710","phone":"310.667.0147","description":"3rd Wednesday 12:00 PM - 4:00 PM"}},{"type":"Feature","geometry":{"type":"Point","coordinates":[-118.299823,33.74818]},"properties":{"title":"Justice for Murdered Children","address":"1039 Elberon Ave","address2":"San Pedro, CA 90732","phone":"310.738.4218","description":"2nd & 4th Saturday 1:00 PM-3:00 PM"}},{"type":"Feature","geometry":{"type":"Point","coordinates":[-118.298613,33.742681]},"properties":{"title":"San Pedro Temple Corps","address":"138 S. Bandini Street","address2":"San Pedro, CA 90731","phone":"310-832-7228","description":"Friday 9:00 AM - 12:00 PM"}},{"type":"Feature","geometry":{"type":"Point","coordinates":[-118.291008,33.813478]},"properties":{"title":"Vermont Avenue Baptist Church","address":"23325 S. Vermont Ave.","address2":"Torrance, CA 90502","phone":"310.530.0533","description":"3rd Saturday 10:00 AM - 1:00 PM"}},{"type":"Feature","geometry":{"type":"Point","coordinates":[-118.286487,33.828376]},"properties":{"title":"Finger of God Goodnews Ministry","address":"21919 S. Figueroa Street","address2":"Carson, CA 90745","phone":"323.719.0290","description":"2nd & Last Saturday 10:00 AM-11:00 PM"}},{"type":"Feature","geometry":{"type":"Point","coordinates":[-118.309048,33.738058]},"properties":{"title":"Trinity Pantry Ministry","address":"1450 West 7th Street","address2":"San Pedro, CA 90732","phone":"310.742.3279","description":"Sunday 8:30 AM-9:15 AM & 12:00 PM-1:00 PM"}},{"type":"Feature","geometry":{"type":"Point","coordinates":[-118.317793,33.792002]},"properties":{"title":"His Helping Hands","address":"25501 Oak Street","address2":"Lomita, CA 90717","phone":"310.326.2757","description":"Thursday 6:00 PM-7:00 PM"}},{"type":"Feature","geometry":{"type":"Point","coordinates":[-118.224259,33.874934]},"properties":{"title":"Centro Palabra de Fe","address":"107 W. Artesia Boulevard","address2":"Compton, CA 90220","phone":"310-632-7337","description":"Last Saturday 7:30 PM - 8:30 PM"}},{"type":"Feature","geometry":{"type":"Point","coordinates":[-118.326068,33.789358]},"properties":{"title":"Hope Chapel Foursquare Church","address":"2420 Pacific Coast Highway","address2":"Hermosa Beach, CA 90254","phone":"310.374.4673","description":"Wednesday & Friday 9:00 AM -12:00 PM & 1:00 PM - 4:00 PM"}},{"type":"Feature","geometry":{"type":"Point","coordinates":[-118.127515,33.87081]},"properties":{"title":"Salvation Army &#8211; Bellflower Temple Corps","address":"9664 Cedar St.","address2":"Bellflower, CA 90706","phone":"562.804.0808","description":"Monday - Friday 11:00 AM-12:30 PM"}},{"type":"Feature","geometry":{"type":"Point","coordinates":[-118.072144,33.827096]},"properties":{"title":"Hawaiian Gardens Food Bank","address":"22121 Norwalk Blvd.","address2":"Hawaiian Gardens, CA 90716","phone":"562.860.9097","description":"Wednesday 2:00 PM - 6:00 PM & Thursday 9:30 AM - 3:30 PM"}},{"type":"Feature","geometry":{"type":"Point","coordinates":[-117.994706,33.912551]},"properties":{"title":"Good Sam Pantry/Beatitudes of our Lord","address":"13013 Santa Gertrudes Ave.","address2":"La Mirada, CA 90638","phone":"562.943.1521","description":"Thursday 4:30 PM - 5:30 PM"}},{"type":"Feature","geometry":{"type":"Point","coordinates":[-117.995284,33.915696]},"properties":{"title":"Grace Evangelical Free Church of La Mirada","address":"12717 Santa Gertrudes Avenue","address2":"La Mirada, CA 90638","phone":"562.943.3791","description":"Friday 4:00 PM - 6:00 PM"}},{"type":"Feature","geometry":{"type":"Point","coordinates":[-117.984331,33.932911]},"properties":{"title":"Morningstar Christian Chapel","address":"16241 Leffingwell Road","address2":"Whittier, CA 90603","phone":"562.943.0297","description":"Tuesday 9:30 AM - 11:30 AM"}},{"type":"Feature","geometry":{"type":"Point","coordinates":[-117.927372,33.950041]},"properties":{"title":"La Habra Christian Church","address":"1400 Bella Vista Drive","address2":"La Habra Heights, CA 90631","phone":"562.691.0514","description":"4th Saturday 9:00 AM-11:00 AM"}},{"type":"Feature","geometry":{"type":"Point","coordinates":[-118.032103,33.9093]},"properties":{"title":"St. Paul of the Cross Church","address":"14020 Foster Road","address2":"La Mirada, CA 90638","phone":"562.921.2914","description":"Tuesday 11:00 AM - 12:30 PM"}},{"type":"Feature","geometry":{"type":"Point","coordinates":[-118.032103,33.9093]},"properties":{"title":"St. Paul of the Cross Church","address":"14020 Foster Road","address2":"La Mirada, CA 90638","phone":"562.921.2914","description":"Tuesday 11:00 AM - 12:30 PM"}},{"type":"Feature","geometry":{"type":"Point","coordinates":[-118.066222,33.832874]},"properties":{"title":"Lawrence Ministries","address":"12441 E. Farlow Street","address2":"Hawaiian Gardens, CA 90716","phone":"310.764.4104","description":"3rd Saturday 10:00 AM - 2:00 PM"}},{"type":"Feature","geometry":{"type":"Point","coordinates":[-118.048477,33.898439]},"properties":{"title":"Adonai SDA Church","address":"13246 Mapledale Street","address2":"Norwalk, CA 90650","phone":"562.480.8181","description":"1st & 3rd Saturday 4:00-6:00 PM"}},{"type":"Feature","geometry":{"type":"Point","coordinates":[-118.071344,33.846469]},"properties":{"title":"Crossroads Multinational Church of the Nazarene","address":"12229 E. Del Amo Blvd","address2":"Cerritos, CA 90703","phone":"562.809.4143","description":"Sunday 8:30 AM- 9:45 AM & 3:00 PM-4:00 PM"}},{"type":"Feature","geometry":{"type":"Point","coordinates":[-118.03455,33.932435]},"properties":{"title":"St. Gregory the Great Church","address":"13935 Telegraph Road","address2":"Whittier, CA 90604","phone":"562.777.2475","description":"Tuesday-Thursday 10:00 AM-2:00 PM"}},{"type":"Feature","geometry":{"type":"Point","coordinates":[-118.046945,33.927733]},"properties":{"title":"Catholic Rainbow Outreach","address":"11419 Carmenita Road","address2":"Whittier, CA 90605","phone":"562.897.2095","description":"Monday-Wednesday, Friday 11:00 AM-12:00 PM, 2nd,4th & 5th Saturday 10:30 AM-11:30 AM"}}]